City_ID,City,Lat,Lng,Max Temp,Humidity,Cloudiness,Wind Speed,Country,Date
0,yellowknife,62.456,-114.3525,-9.71,92,100,4.12,CA,Wed Jan 31 19:45:21 2024
1,ushuaia,-54.8,-68.3,7.81,81,0,4.63,AR,Wed Jan 31 19:45:22 2024
2,grytviken,-54.2811,-36.5092,5.02,66,80,3.92,GS,Wed Jan 31 19:45:22 2024
3,yerofey pavlovich,53.9667,121.9667,-15.79,65,29,1.58,RU,Wed Jan 31 19:45:22 2024
4,waitangi,-43.9535,-176.5597,18.79,98,100,0.45,NZ,Wed Jan 31 19:45:22 2024
5,adamstown,-25.066,-130.1015,24.96,81,7,6.56,PN,Wed Jan 31 19:45:22 2024
6,trancas,-26.2314,-65.2803,24.35,66,99,1.28,AR,Wed Jan 31 19:45:22 2024
7,puerto deseado,-47.7503,-65.8938,14.57,88,58,4.71,AR,Wed Jan 31 19:45:22 2024
8,petropavlovsk-kamchatsky,53.0452,158.6483,-10.67,62,75,2.68,RU,Wed Jan 31 19:45:22 2024
9,bardai,11.65,7.2333,16.78,23,1,5.78,NG,Wed Jan 31 19:45:23 2024
10,port-aux-francais,-49.35,70.2167,5.17,84,97,4.42,TF,Wed Jan 31 19:45:23 2024
11,saipan,15.1355,145.701,29.39,58,40,9.26,MP,Wed Jan 31 19:45:23 2024
12,olonkinbyen,70.9221,-8.7187,-6.65,63,82,10.88,SJ,Wed Jan 31 19:45:23 2024
13,bredasdorp,-34.5322,20.0403,20.53,83,22,3.54,ZA,Wed Jan 31 19:45:23 2024
14,invercargill,-46.4,168.35,15.57,65,100,3.13,NZ,Wed Jan 31 19:45:23 2024
15,puerto natales,-51.7236,-72.4875,8.37,84,99,1.35,CL,Wed Jan 31 19:45:23 2024
16,remire-montjoly,4.9167,-52.2667,27.02,78,20,2.57,GF,Wed Jan 31 19:45:24 2024
17,hawaiian paradise park,19.5933,-154.9731,24.73,81,100,1.54,US,Wed Jan 31 19:45:24 2024
18,atafu village,-8.5421,-172.5159,28.72,74,68,2.96,TK,Wed Jan 31 19:45:24 2024
19,kijang,35.2442,129.2139,7.85,82,100,5.93,KR,Wed Jan 31 19:45:24 2024
20,isafjordur,66.0755,-23.124,-4.44,81,94,6.03,IS,Wed Jan 31 19:45:24 2024
21,xilin hot,43.9667,116.0333,-19.4,71,100,1.72,CN,Wed Jan 31 19:45:24 2024
22,hasaki,35.7333,140.8333,16.22,57,35,2.18,JP,Wed Jan 31 19:45:24 2024
23,blackmans bay,-43.0167,147.3167,22.51,44,95,7.02,AU,Wed Jan 31 19:45:25 2024
24,gadzhiyevo,69.2551,33.3362,0.18,95,100,12.28,RU,Wed Jan 31 19:45:25 2024
25,banda aceh,5.5577,95.3222,29.12,68,52,5.28,ID,Wed Jan 31 19:45:25 2024
26,iqaluit,63.7506,-68.5145,-35.15,61,0,3.09,CA,Wed Jan 31 19:45:25 2024
27,klyuchi,52.2667,79.1667,-10.94,88,72,3.37,RU,Wed Jan 31 19:45:25 2024
28,ceelbuur,4.685,46.6176,22.72,78,100,4.64,SO,Wed Jan 31 19:45:25 2024
29,san antonio de pale,-1.4014,5.6325,27.44,81,100,4.52,GQ,Wed Jan 31 19:45:26 2024
30,gazojak,41.1875,61.4036,-0.67,82,94,5.94,TM,Wed Jan 31 19:45:26 2024
31,crane,31.3974,-102.3501,14.46,42,100,5.05,US,Wed Jan 31 19:45:26 2024
32,uturoa,-16.7333,-151.4333,28.7,75,87,4.9,PF,Wed Jan 31 19:45:26 2024
33,nova vicosa,-17.8919,-39.3719,24.8,89,83,3.12,BR,Wed Jan 31 19:45:26 2024
34,grand falls-windsor,48.9332,-55.6649,-9.72,87,5,0.89,CA,Wed Jan 31 19:45:26 2024
35,zeya,53.75,127.2667,-16.95,66,5,2.67,RU,Wed Jan 31 19:45:26 2024
36,port saint john's,-31.6229,29.5448,22.24,87,98,5.77,ZA,Wed Jan 31 19:45:27 2024
37,kabare,-2.4683,28.8242,16.62,93,100,0.7,CD,Wed Jan 31 19:45:27 2024
38,mildenhall,51.4256,-1.6999,8.16,84,100,2.63,GB,Wed Jan 31 19:45:27 2024
39,flying fish cove,-10.4217,105.6791,29.82,74,90,3.6,CX,Wed Jan 31 19:45:27 2024
40,corumba,-19.0092,-57.6533,26.03,55,26,0.85,BR,Wed Jan 31 19:45:27 2024
41,kailua-kona,19.6406,-155.9956,26.98,85,75,4.63,US,Wed Jan 31 19:45:27 2024
42,bilibino,68.0546,166.4372,-40.85,98,27,1.85,RU,Wed Jan 31 19:45:27 2024
43,hermanus,-34.4187,19.2345,22.11,84,8,5.53,ZA,Wed Jan 31 19:45:28 2024
44,kingston,17.997,-76.7936,25.53,81,20,7.72,JM,Wed Jan 31 19:41:58 2024
45,ilulissat,69.2167,-51.1,-17.99,78,100,2.06,GL,Wed Jan 31 19:45:28 2024
46,alice springs,-23.7,133.8833,36.79,13,2,5.66,AU,Wed Jan 31 19:45:28 2024
47,lihue,21.9789,-159.3672,25.58,68,100,4.63,US,Wed Jan 31 19:45:28 2024
48,hadibu,12.65,54.0333,24.23,77,43,2.36,YE,Wed Jan 31 19:45:28 2024
49,kodiak,57.79,-152.4072,-3.27,63,0,5.66,US,Wed Jan 31 19:45:28 2024
50,babayevo,59.3936,35.9371,0.66,98,100,3.74,RU,Wed Jan 31 19:45:28 2024
51,zaysan,47.4667,84.8667,-10.41,89,99,0.83,KZ,Wed Jan 31 19:45:29 2024
52,east london,-33.0153,27.9116,20.52,94,75,5.66,ZA,Wed Jan 31 19:45:29 2024
53,vila velha,-20.3297,-40.2925,25.53,96,40,1.03,BR,Wed Jan 31 19:45:29 2024
54,port mathurin,-19.6833,63.4167,27.57,82,59,12.1,MU,Wed Jan 31 19:45:29 2024
55,guantanamo,20.1444,-75.2092,23.76,89,23,2.44,CU,Wed Jan 31 19:45:29 2024
56,uttar char fasson,22.2332,90.7132,21.99,54,36,2.28,BD,Wed Jan 31 19:45:29 2024
57,avarua,-21.2078,-159.775,28.03,74,20,2.57,CK,Wed Jan 31 19:45:29 2024
58,tolanaro,-25.0319,46.9987,25.04,83,75,7.2,MG,Wed Jan 31 19:45:30 2024
59,vrangel',42.7297,133.0839,-11.15,48,2,7.03,RU,Wed Jan 31 19:45:30 2024
60,wailua homesteads,22.0669,-159.378,25.24,69,100,4.63,US,Wed Jan 31 19:45:30 2024
61,papatowai,-46.5619,169.4708,11.61,88,100,1.55,NZ,Wed Jan 31 19:45:30 2024
62,hithadhoo,-0.6,73.0833,27.97,76,61,4.84,MV,Wed Jan 31 19:45:30 2024
63,kingscliff,-28.2667,153.5667,29.29,69,40,9.26,AU,Wed Jan 31 19:45:30 2024
64,anadyr,64.75,177.4833,-21.72,77,40,7.0,RU,Wed Jan 31 19:45:30 2024
65,puerto baquerizo moreno,-0.9,-89.6,25.56,83,99,4.91,EC,Wed Jan 31 19:45:30 2024
66,udachny,66.4167,112.4,-22.53,83,94,1.68,RU,Wed Jan 31 19:45:31 2024
67,prince rupert,54.3161,-130.3201,10.05,87,100,6.69,CA,Wed Jan 31 19:45:31 2024
68,makaha,21.4694,-158.2175,26.1,64,100,0.0,US,Wed Jan 31 19:45:31 2024
69,la'ie,21.6477,-157.9253,26.14,66,57,0.89,US,Wed Jan 31 19:45:31 2024
70,birao,10.2849,22.7882,19.75,22,100,4.6,CF,Wed Jan 31 19:45:31 2024
71,sheridan,44.8333,-106.9173,7.95,69,0,1.54,US,Wed Jan 31 19:45:31 2024
72,ribeira grande,38.5167,-28.7,15.99,81,67,3.58,PT,Wed Jan 31 19:45:31 2024
73,vernon,50.2581,-119.2691,7.01,94,100,2.57,CA,Wed Jan 31 19:42:23 2024
74,margaret river,-33.95,115.0667,27.85,54,0,2.56,AU,Wed Jan 31 19:45:32 2024
75,faranah,10.0404,-10.7434,21.38,25,40,0.86,GN,Wed Jan 31 19:45:32 2024
76,edinburgh of the seven seas,-37.0676,-12.3116,17.7,79,99,5.85,SH,Wed Jan 31 19:45:32 2024
77,carnarvon,-24.8667,113.6333,32.86,52,14,4.33,AU,Wed Jan 31 19:45:32 2024
78,patterson,37.4716,-121.1297,14.32,78,100,9.44,US,Wed Jan 31 19:45:32 2024
79,birjand,32.8663,59.2211,0.26,47,20,5.14,IR,Wed Jan 31 19:45:32 2024
80,mbandaka,0.0487,18.2603,21.46,97,95,1.43,CD,Wed Jan 31 19:45:33 2024
81,albany,42.6001,-73.9662,1.23,87,100,0.96,US,Wed Jan 31 19:43:09 2024
82,santa elena de uairen,4.6167,-61.1333,22.31,73,68,1.35,VE,Wed Jan 31 19:45:33 2024
83,marsh harbour,26.5412,-77.0636,20.55,60,59,13.96,BS,Wed Jan 31 19:45:33 2024
84,luena,-11.7833,19.9167,16.81,98,100,1.91,AO,Wed Jan 31 19:45:33 2024
85,tiksi,71.6872,128.8694,-21.42,97,35,3.27,RU,Wed Jan 31 19:45:33 2024
86,longyearbyen,78.2186,15.6401,-11.09,73,75,3.6,SJ,Wed Jan 31 19:45:33 2024
87,makassar,-5.14,119.4221,30.03,79,20,4.12,ID,Wed Jan 31 19:45:34 2024
88,taishan,22.2514,112.7799,26.99,53,67,1.94,CN,Wed Jan 31 19:45:34 2024
89,carbonear,47.7332,-53.2148,-5.92,78,6,4.28,CA,Wed Jan 31 19:45:34 2024
90,lebu,-37.6167,-73.65,14.84,92,22,4.38,CL,Wed Jan 31 19:45:34 2024
91,georgetown,5.4112,100.3354,30.96,62,20,4.63,MY,Wed Jan 31 19:44:17 2024
92,pisco,-13.7,-76.2167,24.03,73,100,5.14,PE,Wed Jan 31 19:45:34 2024
93,aleksandrovsk-sakhalinskiy,50.8975,142.1561,-19.13,87,100,5.59,RU,Wed Jan 31 19:45:34 2024
94,coahuayana de hidalgo,18.7,-103.6583,24.33,81,100,1.01,MX,Wed Jan 31 19:45:34 2024
95,tsiombe,-25.3,45.4833,24.54,74,71,7.34,MG,Wed Jan 31 19:45:35 2024
96,aginskoye,51.1,114.53,-17.24,67,2,0.7,RU,Wed Jan 31 19:45:35 2024
97,qaqortoq,60.7167,-46.0333,-0.87,98,100,8.26,GL,Wed Jan 31 19:45:35 2024
98,baza,37.4907,-2.7726,9.68,80,1,1.11,ES,Wed Jan 31 19:45:35 2024
99,la passe,45.5549,-0.8967,8.88,86,100,1.43,FR,Wed Jan 31 19:45:35 2024
100,lata,40.1629,-8.3327,10.51,77,0,1.68,PT,Wed Jan 31 19:45:35 2024
101,phillip island,-38.4835,145.231,24.36,80,5,9.24,AU,Wed Jan 31 19:45:35 2024
102,newman,37.3138,-121.0208,14.19,78,100,4.92,US,Wed Jan 31 19:45:36 2024
103,pamplona,42.8169,-1.6432,4.43,93,10,0.51,ES,Wed Jan 31 19:40:46 2024
104,gemena,3.25,19.7667,21.95,46,100,0.91,CD,Wed Jan 31 19:45:36 2024
105,dakhla,23.6848,-15.958,19.38,39,0,4.87,EH,Wed Jan 31 19:45:36 2024
106,juneau,58.3019,-134.4197,-0.88,97,100,2.57,US,Wed Jan 31 19:44:23 2024
107,bucerias,20.75,-105.3333,24.43,88,40,1.54,MX,Wed Jan 31 19:41:11 2024
108,kruisfontein,-34.0033,24.7314,20.22,84,71,3.72,ZA,Wed Jan 31 19:45:36 2024
109,fale old settlement,-9.3852,-171.2468,26.81,86,99,5.55,TK,Wed Jan 31 19:45:36 2024
110,tazovsky,67.4667,78.7,-18.9,96,95,5.78,RU,Wed Jan 31 19:45:28 2024
111,ilha de mocambique,-15.0342,40.7358,24.74,88,88,4.52,MZ,Wed Jan 31 19:45:37 2024
112,barah,13.7,30.3667,12.72,27,10,5.41,SD,Wed Jan 31 19:45:37 2024
113,souillac,-20.5167,57.5167,27.21,89,75,5.14,MU,Wed Jan 31 19:45:37 2024
114,mount gambier,-37.8333,140.7667,23.02,46,0,5.71,AU,Wed Jan 31 19:45:37 2024
115,crescent city,41.756,-124.2018,11.05,90,100,3.09,US,Wed Jan 31 19:45:37 2024
116,n'zeto,-7.2312,12.8666,25.45,82,100,1.02,AO,Wed Jan 31 19:45:37 2024
117,khandyga,62.6667,135.6,-29.71,91,100,1.09,RU,Wed Jan 31 19:45:37 2024
118,nadi,-17.8,177.4167,31.0,74,75,5.14,FJ,Wed Jan 31 19:45:38 2024
119,san gabriel,34.0961,-118.1058,15.33,77,0,1.54,US,Wed Jan 31 19:45:38 2024
120,penkridge,52.7256,-2.1156,3.99,83,93,3.29,GB,Wed Jan 31 19:45:38 2024
121,thompson,55.7435,-97.8558,-17.91,85,20,1.03,CA,Wed Jan 31 19:45:38 2024
122,yatou,37.15,122.3833,-1.72,50,32,10.07,CN,Wed Jan 31 19:45:38 2024
123,taber,49.8167,-112.1518,6.91,78,66,6.69,CA,Wed Jan 31 19:45:38 2024
124,oamaru,-45.0784,170.9801,15.42,77,90,4.42,NZ,Wed Jan 31 19:45:38 2024
125,santa maria,-29.6842,-53.8069,19.61,83,0,1.03,BR,Wed Jan 31 19:42:09 2024
126,bethel,41.3712,-73.414,2.05,81,100,0.0,US,Wed Jan 31 19:45:39 2024
127,biltine,14.5333,20.9167,16.66,27,0,7.43,TD,Wed Jan 31 19:45:39 2024
128,lompoc,34.6391,-120.4579,15.43,84,100,9.83,US,Wed Jan 31 19:45:39 2024
129,port hedland,-20.3167,118.5667,35.03,59,64,8.75,AU,Wed Jan 31 19:45:39 2024
130,vadso,70.0744,29.7487,0.09,86,40,12.86,NO,Wed Jan 31 19:45:39 2024
131,aasiaat,68.7098,-52.8699,-25.85,97,90,4.9,GL,Wed Jan 31 19:45:39 2024
132,hamilton,39.1834,-84.5333,4.2,85,100,2.57,US,Wed Jan 31 19:43:13 2024
133,itapuranga,-15.5622,-49.9486,20.0,95,8,2.26,BR,Wed Jan 31 19:45:39 2024
134,keflavik,64.0049,-22.5624,0.24,86,100,5.14,IS,Wed Jan 31 19:45:39 2024
135,mandan,46.8267,-100.8896,3.89,96,0,2.57,US,Wed Jan 31 19:45:40 2024
136,marksville,31.128,-92.0662,9.99,78,95,2.29,US,Wed Jan 31 19:45:40 2024
137,kerikeri,-35.2268,173.9474,27.17,64,0,1.34,NZ,Wed Jan 31 19:45:40 2024
138,mount pearl,47.5166,-52.7813,-6.63,81,0,8.23,CA,Wed Jan 31 19:45:40 2024
139,stanley,54.868,-1.6985,4.6,86,20,7.2,GB,Wed Jan 31 19:45:40 2024
140,la asuncion,11.0333,-63.8628,26.85,83,65,5.66,VE,Wed Jan 31 19:45:40 2024
141,huarmey,-10.0681,-78.1522,24.11,79,98,3.22,PE,Wed Jan 31 19:45:40 2024
142,suphan buri,14.4742,100.1222,32.49,43,42,2.59,TH,Wed Jan 31 19:45:41 2024
143,tamanrasset,22.785,5.5228,9.95,23,0,7.2,DZ,Wed Jan 31 19:45:41 2024
144,charters towers,-20.1,146.2667,31.94,52,98,2.46,AU,Wed Jan 31 19:45:41 2024
145,obo,5.3998,26.4869,22.36,21,100,2.98,CF,Wed Jan 31 19:45:41 2024
146,acarau,-2.8856,-40.12,26.9,86,100,4.44,BR,Wed Jan 31 19:45:41 2024
147,trujillo,-8.116,-79.03,23.98,83,100,3.09,PE,Wed Jan 31 19:43:13 2024
148,bozkurt,41.9577,34.0109,3.57,64,20,1.47,TR,Wed Jan 31 19:45:41 2024
149,polyarnyy,69.1989,33.4478,0.45,95,100,12.41,RU,Wed Jan 31 19:45:41 2024
150,la ronge,55.1001,-105.2842,1.14,86,20,3.09,CA,Wed Jan 31 19:45:42 2024
151,sernur,56.9333,49.1536,-14.12,98,92,2.42,RU,Wed Jan 31 19:45:42 2024
152,ta`u,-14.2336,-169.5144,29.03,67,100,1.15,AS,Wed Jan 31 19:45:42 2024
153,xianning,29.8833,114.2167,5.22,91,100,5.53,CN,Wed Jan 31 19:45:42 2024
154,kristiansund,63.1115,7.732,3.03,69,75,13.89,NO,Wed Jan 31 19:45:42 2024
155,rongelap,11.1635,166.8941,26.48,84,92,10.6,MH,Wed Jan 31 19:45:42 2024
156,canutama,-6.5339,-64.3831,24.69,97,100,0.93,BR,Wed Jan 31 19:45:42 2024
157,college,64.8569,-147.8028,-34.01,70,0,1.54,US,Wed Jan 31 19:45:42 2024
158,northam,51.0333,-4.2167,7.56,88,100,2.95,GB,Wed Jan 31 19:45:43 2024
159,akureyri,65.6835,-18.0878,-3.04,50,75,1.03,IS,Wed Jan 31 19:45:43 2024
160,hillsborough,37.5741,-122.3794,13.19,94,100,12.35,US,Wed Jan 31 19:45:43 2024
161,roma,43.2128,-75.4557,2.68,85,100,1.54,US,Wed Jan 31 19:45:43 2024
162,simpang empat,4.95,100.6333,30.32,67,98,1.03,MY,Wed Jan 31 19:45:43 2024
163,puerto cabezas,14.0351,-83.3888,21.72,79,26,4.49,NI,Wed Jan 31 19:45:43 2024
164,dunedin,-45.8742,170.5036,13.99,78,98,3.96,NZ,Wed Jan 31 19:45:43 2024
165,st. john's,47.5649,-52.7093,-6.17,81,0,8.23,CA,Wed Jan 31 19:45:43 2024
166,richards bay,-28.783,32.0377,20.86,88,37,1.95,ZA,Wed Jan 31 19:45:43 2024
167,laguna,38.421,-121.4238,13.41,79,100,9.26,US,Wed Jan 31 19:45:44 2024
168,terrace,54.5163,-128.6035,4.95,100,100,2.57,CA,Wed Jan 31 19:45:44 2024
169,amga,60.8953,131.9608,-27.01,91,99,1.55,RU,Wed Jan 31 19:45:44 2024
170,utrik,11.2278,169.8474,26.19,85,100,10.28,MH,Wed Jan 31 19:45:44 2024
171,talnakh,69.4865,88.3972,-14.33,74,72,4.44,RU,Wed Jan 31 19:45:44 2024
172,queenstown,-31.8976,26.8753,19.45,72,59,0.76,ZA,Wed Jan 31 19:45:44 2024
173,montevallo,33.1007,-86.8642,7.55,78,0,0.0,US,Wed Jan 31 19:45:44 2024
174,coari,-4.085,-63.1414,24.08,98,100,0.94,BR,Wed Jan 31 19:45:44 2024
175,saposoa,-6.934,-76.7716,23.08,99,100,0.34,PE,Wed Jan 31 19:45:45 2024
176,bubaque,11.2833,-15.8333,25.53,74,87,2.27,GW,Wed Jan 31 19:45:45 2024
177,carutapera,-1.195,-46.02,25.48,93,93,2.4,BR,Wed Jan 31 19:45:45 2024
178,west island,-12.1568,96.8225,29.99,70,100,3.6,CC,Wed Jan 31 19:45:45 2024
179,happy valley-goose bay,53.3168,-60.3315,-17.83,55,0,2.57,CA,Wed Jan 31 19:45:45 2024
180,pompeia,-22.1086,-50.1717,19.59,74,82,2.46,BR,Wed Jan 31 19:45:45 2024
181,santana,-0.0583,-51.1817,26.1,89,75,3.09,BR,Wed Jan 31 19:45:46 2024
182,broome,42.2506,-75.833,1.61,90,100,3.13,US,Wed Jan 31 19:45:46 2024
183,howard springs,-12.497,131.047,29.51,73,100,4.76,AU,Wed Jan 31 19:45:46 2024
184,daru,-9.0763,143.2092,32.84,59,64,2.21,PG,Wed Jan 31 19:45:46 2024
185,umea,63.8284,20.2597,1.96,80,0,6.69,SE,Wed Jan 31 19:45:46 2024
186,ayr,55.4627,-4.6339,7.99,71,75,5.66,GB,Wed Jan 31 19:45:46 2024
187,villa hidalgo,21.6667,-102.6,17.43,46,100,3.7,MX,Wed Jan 31 19:45:46 2024
188,ust-nera,64.5667,143.2,-24.25,100,100,2.06,RU,Wed Jan 31 19:45:46 2024
189,kudahuvadhoo,2.6708,72.8944,27.5,75,18,4.2,MV,Wed Jan 31 19:45:46 2024
190,katsuren-haebaru,26.3369,127.8719,26.43,63,75,4.63,JP,Wed Jan 31 19:45:47 2024
191,mount darwin,-16.7725,31.5838,16.96,87,6,0.85,ZW,Wed Jan 31 19:45:47 2024
192,constantia,44.1833,28.65,-3.62,65,10,2.91,RO,Wed Jan 31 19:45:47 2024
193,lydenburg,-25.0978,30.4597,12.85,97,52,1.52,ZA,Wed Jan 31 19:45:47 2024
194,cadillac,44.2519,-85.4012,1.95,93,100,5.66,US,Wed Jan 31 19:41:13 2024
195,ancud,-41.8697,-73.8203,14.93,95,14,3.43,CL,Wed Jan 31 19:45:47 2024
196,at taj,24.2049,23.2857,4.55,62,0,3.66,LY,Wed Jan 31 19:45:47 2024
197,geraldton,-28.7667,114.6,45.23,7,0,6.17,AU,Wed Jan 31 19:45:47 2024
198,jiagedaqi,50.4167,124.1167,-14.35,61,2,2.89,CN,Wed Jan 31 19:45:47 2024
199,muzaffarnagar,29.4667,77.6833,13.81,83,94,6.18,IN,Wed Jan 31 19:45:48 2024
200,kone,-21.0595,164.8658,27.98,78,91,0.5,NC,Wed Jan 31 19:45:48 2024
201,weyburn,49.6668,-103.8511,1.12,93,14,3.6,CA,Wed Jan 31 19:45:48 2024
202,port-gentil,-0.7193,8.7815,26.98,94,40,1.03,GA,Wed Jan 31 19:45:48 2024
203,fontanelas,38.8472,-9.4372,13.98,80,4,2.33,PT,Wed Jan 31 19:45:48 2024
204,lindi,-10.0,39.7167,23.28,97,100,1.19,TZ,Wed Jan 31 19:45:48 2024
205,mount isa,-20.7333,139.5,32.87,55,40,6.17,AU,Wed Jan 31 19:45:48 2024
206,khorixas,-20.3667,14.9667,23.59,33,71,1.59,NA,Wed Jan 31 19:45:48 2024
207,levuka,50.1834,-105.4011,0.9,75,55,3.56,CA,Wed Jan 31 19:45:48 2024
208,svetlyy,54.675,20.1347,4.09,88,100,9.19,RU,Wed Jan 31 19:45:49 2024
209,enewetak,11.3474,162.3373,26.66,80,38,10.51,MH,Wed Jan 31 19:45:49 2024
210,kabalo,-6.05,26.9167,20.12,99,100,0.31,CD,Wed Jan 31 19:45:49 2024
211,bandarbeyla,9.4942,50.8122,24.14,78,78,3.59,SO,Wed Jan 31 19:45:49 2024
212,guarapari,-20.6667,-40.4975,25.5,84,100,1.41,BR,Wed Jan 31 19:42:20 2024
213,kachug,53.9606,105.8817,-24.42,93,49,0.89,RU,Wed Jan 31 19:45:49 2024
214,wum,6.3833,10.0667,18.89,30,62,1.1,CM,Wed Jan 31 19:45:49 2024
215,shamkhal,43.0596,47.3373,1.56,48,22,4.92,RU,Wed Jan 31 19:45:49 2024
216,arraial do cabo,-22.9661,-42.0278,23.8,91,100,1.61,BR,Wed Jan 31 19:45:49 2024
217,isla mujeres,21.2311,-86.731,18.03,58,44,3.96,MX,Wed Jan 31 19:45:50 2024
218,saudarkrokur,65.7461,-19.6394,-6.8,84,94,8.05,IS,Wed Jan 31 19:45:50 2024
219,essau,13.4839,-16.5347,24.09,36,100,3.08,GM,Wed Jan 31 19:45:50 2024
220,priob'ye,62.5206,65.5964,-25.54,100,100,3.35,RU,Wed Jan 31 19:45:50 2024
221,bako,5.7833,36.5667,19.34,74,100,1.22,ET,Wed Jan 31 19:45:50 2024
222,kirovsk,48.6375,38.6428,0.29,66,100,4.5,UA,Wed Jan 31 19:45:50 2024
223,peace river,56.2501,-117.286,5.17,60,100,1.03,CA,Wed Jan 31 19:45:50 2024
224,labrador city,52.9463,-66.9114,-26.05,70,0,0.0,CA,Wed Jan 31 19:45:51 2024
225,touros,-5.1989,-35.4608,26.71,76,10,5.31,BR,Wed Jan 31 19:45:51 2024
226,la sarre,48.8002,-79.1996,0.34,98,100,4.39,CA,Wed Jan 31 19:43:42 2024
227,petrozavodsk,61.7849,34.3469,1.7,93,100,8.05,RU,Wed Jan 31 19:45:51 2024
228,kokologo,12.1897,-1.8856,21.92,21,53,5.02,BF,Wed Jan 31 19:45:51 2024
229,junagarh,19.8667,82.9333,26.4,36,31,0.74,IN,Wed Jan 31 19:45:51 2024
230,el fasher,13.6279,25.3494,12.63,32,27,3.33,SD,Wed Jan 31 19:45:51 2024
231,charlton kings,51.8837,-2.0424,5.94,83,100,0.45,GB,Wed Jan 31 19:45:51 2024
232,penzance,50.1186,-5.5371,10.38,90,100,2.95,GB,Wed Jan 31 19:45:51 2024
233,bayganin,48.6947,55.8742,-12.21,98,87,3.37,KZ,Wed Jan 31 19:45:52 2024
234,farasan,16.7022,42.1183,25.27,77,100,4.76,SA,Wed Jan 31 19:45:52 2024
235,bovalino,38.149,16.174,11.94,81,33,2.69,IT,Wed Jan 31 19:45:52 2024
236,cannonvale,-20.2833,148.7,29.66,69,100,2.27,AU,Wed Jan 31 19:45:52 2024
237,pajapan,18.25,-94.7,17.74,81,99,2.21,MX,Wed Jan 31 19:45:52 2024
238,talakan,50.3167,130.3667,-19.2,82,99,2.88,RU,Wed Jan 31 19:45:52 2024
239,sao joao da barra,-21.6403,-41.0511,24.46,87,100,3.23,BR,Wed Jan 31 19:45:52 2024
240,nizhneangarsk,55.7833,109.55,-23.33,72,63,0.89,RU,Wed Jan 31 19:45:52 2024
241,brandfort,-28.7001,26.4597,18.67,63,81,2.56,ZA,Wed Jan 31 19:45:52 2024
242,kapa'a,22.0752,-159.319,25.99,68,100,4.63,US,Wed Jan 31 19:42:19 2024
243,kourou,5.1552,-52.6478,27.03,81,81,4.09,GF,Wed Jan 31 19:45:53 2024
244,meadow lake,34.8014,-106.5436,9.55,69,49,1.38,US,Wed Jan 31 19:45:53 2024
245,ryotsu-minato,38.0833,138.4333,1.25,77,99,10.28,JP,Wed Jan 31 19:45:53 2024
246,yichang,30.7144,111.2847,4.81,88,100,1.09,CN,Wed Jan 31 19:45:53 2024
247,konkwesso,10.8469,4.0984,21.85,21,34,2.24,NG,Wed Jan 31 19:45:53 2024
248,mankono,8.0586,-6.1897,23.62,31,12,0.83,CI,Wed Jan 31 19:45:53 2024
249,new norfolk,-42.7826,147.0587,23.17,49,97,6.71,AU,Wed Jan 31 19:45:53 2024
250,biloela,-24.4167,150.5,33.83,38,7,6.11,AU,Wed Jan 31 19:45:53 2024
251,lazaro cardenas,17.9583,-102.2,25.9,77,100,1.16,MX,Wed Jan 31 19:45:54 2024
252,wynyard,-41.0,145.7167,19.28,67,100,7.0,AU,Wed Jan 31 19:45:54 2024
253,sandnessjoen,66.0217,12.6316,4.29,91,100,26.31,NO,Wed Jan 31 19:45:54 2024
254,vilyuchinsk,52.9306,158.4028,-9.85,67,32,0.61,RU,Wed Jan 31 19:45:54 2024
255,cozumel,20.5083,-86.9458,23.3,73,56,4.44,MX,Wed Jan 31 19:45:35 2024
256,maintirano,-18.0667,44.0167,27.3,77,100,1.38,MG,Wed Jan 31 19:45:54 2024
257,brownwood,31.7093,-98.9912,13.62,54,0,2.57,US,Wed Jan 31 19:45:02 2024
258,whitehorse,60.7161,-135.0538,-9.57,67,100,4.63,CA,Wed Jan 31 19:41:54 2024
259,bethanie,-26.4833,17.15,24.79,43,40,1.45,NA,Wed Jan 31 19:45:54 2024
260,labytnangi,66.6572,66.4183,-18.33,97,100,3.79,RU,Wed Jan 31 19:45:55 2024
261,malango,-2.9627,119.9001,28.97,60,95,1.13,ID,Wed Jan 31 19:45:55 2024
262,pacific grove,36.6177,-121.9166,14.68,89,100,3.58,US,Wed Jan 31 19:45:55 2024
263,iquique,-20.2208,-70.1431,22.02,78,38,1.5,CL,Wed Jan 31 19:43:53 2024
264,adam,22.3756,57.5233,21.21,68,67,1.59,OM,Wed Jan 31 19:45:55 2024
265,port alfred,-33.5906,26.891,20.66,96,100,3.27,ZA,Wed Jan 31 19:45:55 2024
266,christchurch,-43.5333,172.6333,23.08,61,40,6.17,NZ,Wed Jan 31 19:45:55 2024
267,tura,25.5198,90.2201,22.75,35,0,0.8,IN,Wed Jan 31 19:45:55 2024
268,'ain el bell,34.3438,3.2247,6.16,64,60,1.23,DZ,Wed Jan 31 19:45:56 2024
269,kupjansk,49.7209,37.5998,-1.45,83,100,4.11,UA,Wed Jan 31 19:45:56 2024
270,nogliki,51.8333,143.1667,-20.37,91,92,4.02,RU,Wed Jan 31 19:45:56 2024
271,south hedland,-20.4089,118.5983,34.96,59,64,8.75,AU,Wed Jan 31 19:45:56 2024
272,sao felix do xingu,-6.6447,-51.995,22.48,98,100,0.79,BR,Wed Jan 31 19:45:56 2024
273,tongchuanshi,35.0806,109.0897,0.65,81,99,3.13,CN,Wed Jan 31 19:45:56 2024
274,cestos city,5.46,-9.5828,26.75,85,53,2.92,LR,Wed Jan 31 19:45:56 2024
275,syktyvkar,61.6764,50.8099,-6.15,93,100,4.0,RU,Wed Jan 31 19:45:56 2024
276,n'dalatando,-9.2978,14.9116,19.47,98,100,0.56,AO,Wed Jan 31 19:45:57 2024
277,san martin de los andes,-40.1604,-71.3486,15.36,74,11,2.25,AR,Wed Jan 31 19:45:57 2024
278,bafata,12.1667,-14.75,22.28,61,98,1.96,GW,Wed Jan 31 19:45:57 2024
279,arkhangel'sk,64.5401,40.5433,-0.94,100,100,5.0,RU,Wed Jan 31 19:45:57 2024
280,tralee,52.2704,-9.7026,4.67,85,100,0.68,IE,Wed Jan 31 19:44:59 2024
281,'ain boucif,35.8912,3.1585,5.13,79,34,0.52,DZ,Wed Jan 31 19:45:57 2024
282,panevezys,55.7333,24.35,0.56,85,94,7.7,LT,Wed Jan 31 19:45:57 2024
283,nueva gerona,21.8833,-82.8,20.02,63,0,4.64,CU,Wed Jan 31 19:45:57 2024
284,alaghsas,17.0187,8.0168,16.74,20,58,5.25,NE,Wed Jan 31 19:45:57 2024
285,port elizabeth,-33.918,25.5701,22.16,87,75,11.83,ZA,Wed Jan 31 19:45:58 2024
286,greenville,35.6127,-77.3663,5.09,90,0,1.34,US,Wed Jan 31 19:44:25 2024
287,anchorage,61.2181,-149.9003,-21.82,79,40,1.54,US,Wed Jan 31 19:43:55 2024
288,gargalianoi,37.0667,21.6333,5.75,53,0,2.31,GR,Wed Jan 31 19:45:58 2024
289,puerto ayora,-0.7393,-90.3518,25.49,83,98,3.88,EC,Wed Jan 31 19:45:58 2024
290,black point,-34.6187,137.8972,22.7,56,0,6.4,AU,Wed Jan 31 19:45:58 2024
291,minas de marcona,-15.2119,-75.1103,18.28,80,92,3.62,PE,Wed Jan 31 19:45:58 2024
292,cockburn town,21.4612,-71.1419,23.58,62,1,2.34,TC,Wed Jan 31 19:45:58 2024
293,thiruvananthapuram,8.4833,76.9167,27.99,78,20,1.54,IN,Wed Jan 31 19:45:14 2024
294,al jawf,29.5,38.75,5.22,73,10,6.56,SA,Wed Jan 31 19:45:58 2024
295,calama,-22.4667,-68.9333,14.27,33,0,3.6,CL,Wed Jan 31 19:45:59 2024
296,imbituba,-28.24,-48.6703,24.36,93,12,2.07,BR,Wed Jan 31 19:45:59 2024
297,kangding,30.0513,101.9603,7.89,42,0,0.84,CN,Wed Jan 31 19:45:59 2024
298,wamba,8.9333,8.6,22.07,24,89,1.84,NG,Wed Jan 31 19:45:59 2024
299,puerto morazan,12.8504,-87.1717,27.09,51,77,1.82,NI,Wed Jan 31 19:45:59 2024
300,chigorodo,7.6664,-76.6811,24.39,92,59,2.1,CO,Wed Jan 31 19:45:59 2024
301,hilo,19.7297,-155.09,24.85,73,100,1.54,US,Wed Jan 31 19:42:31 2024
302,hebi,35.8992,114.1925,-1.64,58,96,6.1,CN,Wed Jan 31 19:45:59 2024
303,rehoboth,-23.3167,17.0833,21.96,61,63,0.87,NA,Wed Jan 31 19:46:00 2024
304,agat village,13.3886,144.6585,31.52,67,40,9.26,GU,Wed Jan 31 19:46:00 2024
305,manaure,11.7751,-72.4445,25.05,85,100,4.56,CO,Wed Jan 31 19:46:00 2024
306,mitu,1.1983,-70.1733,23.65,96,90,0.82,CO,Wed Jan 31 19:46:00 2024
307,punta arenas,-53.15,-70.9167,10.06,76,0,3.6,CL,Wed Jan 31 19:43:23 2024
308,zhanaozen,43.3,52.8,-6.45,94,7,1.35,KZ,Wed Jan 31 19:46:00 2024
309,moratuwa,6.773,79.8816,28.01,80,100,1.23,LK,Wed Jan 31 19:46:00 2024
310,watsa,3.0372,29.5355,19.1,49,100,0.66,CD,Wed Jan 31 19:46:00 2024
311,antsiranana,-12.2787,49.2917,24.42,94,40,4.12,MG,Wed Jan 31 19:46:01 2024
312,blackwater,-23.5833,148.8833,33.61,34,48,5.84,AU,Wed Jan 31 19:46:01 2024
313,kapuskasing,49.4169,-82.4331,1.05,93,100,4.63,CA,Wed Jan 31 19:43:22 2024
314,dudinka,69.4058,86.1778,-14.1,90,89,9.16,RU,Wed Jan 31 19:46:01 2024
315,wotho,10.1657,166.0102,26.75,84,81,10.89,MH,Wed Jan 31 19:46:01 2024
316,porto novo,6.4965,2.6036,27.9,89,47,1.69,BJ,Wed Jan 31 19:46:01 2024
317,afaahiti,-17.75,-149.2833,27.93,81,25,6.37,PF,Wed Jan 31 19:46:01 2024
318,san luis rio colorado,32.4631,-114.7767,19.39,49,91,3.75,MX,Wed Jan 31 19:42:22 2024
319,nagqu,31.5,92.0,-5.43,16,100,12.55,CN,Wed Jan 31 19:46:01 2024
320,chernyakhovsk,54.6335,21.8156,1.58,81,100,7.7,RU,Wed Jan 31 19:46:02 2024
321,tarija,-21.5355,-64.7296,17.4,86,100,0.71,BO,Wed Jan 31 19:46:02 2024
322,nemuro,43.3236,145.575,-3.62,60,16,15.42,JP,Wed Jan 31 19:46:02 2024
323,sarykemer,43.0,71.5,-2.29,68,100,1.44,KZ,Wed Jan 31 19:46:02 2024
324,beira,-19.8436,34.8389,26.05,100,75,2.24,MZ,Wed Jan 31 19:46:02 2024
325,grissom air force base,40.6575,-86.1476,2.12,91,20,3.6,US,Wed Jan 31 19:46:02 2024
326,namibe,-15.1961,12.1522,24.48,88,94,2.55,AO,Wed Jan 31 19:46:02 2024
327,ortona,42.3496,14.4039,9.36,53,100,1.65,IT,Wed Jan 31 19:46:02 2024
328,turuntayevo,52.2,107.6167,-30.95,81,46,1.02,RU,Wed Jan 31 19:46:03 2024
329,mil'kovo,55.6078,37.7956,0.33,97,100,3.63,RU,Wed Jan 31 19:46:03 2024
330,ghazni,33.5536,68.4269,-3.79,33,0,3.29,AF,Wed Jan 31 19:46:03 2024
331,tazacorte,28.629,-17.9293,21.75,20,0,3.6,ES,Wed Jan 31 19:46:03 2024
332,skovorodino,53.9833,123.9167,-16.0,65,5,3.82,RU,Wed Jan 31 19:46:03 2024
333,korla,41.7597,86.1469,-2.34,60,100,2.07,CN,Wed Jan 31 19:46:03 2024
334,jamestown,42.097,-79.2353,2.23,87,100,6.69,US,Wed Jan 31 19:43:38 2024
335,tubarjal,30.4999,38.216,5.4,81,54,4.24,SA,Wed Jan 31 19:46:03 2024
336,gornopravdinsk,60.05,69.9,-15.23,97,100,2.35,RU,Wed Jan 31 19:46:04 2024
337,hovd,48.0056,91.6419,-18.39,83,97,1.05,MN,Wed Jan 31 19:46:04 2024
338,kiunga,-6.1219,141.2906,34.0,51,62,2.02,PG,Wed Jan 31 19:46:04 2024
339,capinota,-17.7167,-66.2333,20.67,68,76,1.98,BO,Wed Jan 31 19:46:04 2024
340,thulamahashi,-24.7246,31.1994,17.83,90,14,2.05,ZA,Wed Jan 31 19:46:04 2024
341,pauls valley,34.7401,-97.2223,13.86,58,0,0.0,US,Wed Jan 31 19:46:04 2024
342,mirny,62.5353,113.9611,-24.33,94,96,1.35,RU,Wed Jan 31 19:46:04 2024
343,lucapa,-8.4192,20.7447,18.39,98,100,0.4,AO,Wed Jan 31 19:46:04 2024
344,paragominas,-2.9667,-47.4833,22.67,99,60,0.96,BR,Wed Jan 31 19:46:05 2024
345,al kharijah,25.4514,30.5464,5.75,61,0,1.72,EG,Wed Jan 31 19:46:05 2024
346,sitka,57.0531,-135.33,0.94,93,100,5.66,US,Wed Jan 31 19:46:05 2024
347,fort st. john,56.2499,-120.8529,-0.06,80,75,2.57,CA,Wed Jan 31 19:46:05 2024
348,riosucio,5.4216,-75.7032,16.67,95,75,0.48,CO,Wed Jan 31 19:46:05 2024
349,banff,51.1762,-115.5698,11.57,65,100,2.57,CA,Wed Jan 31 19:46:05 2024
350,krasnyy chikoy,50.3643,108.7512,-18.35,78,3,0.2,RU,Wed Jan 31 19:46:05 2024
351,turpan,42.9333,89.1667,2.56,36,99,1.28,CN,Wed Jan 31 19:46:06 2024
352,vorgashor,67.5833,63.95,-9.0,95,100,7.03,RU,Wed Jan 31 19:46:06 2024
353,kuala tungkal,-0.8167,103.4667,29.2,69,95,2.66,ID,Wed Jan 31 19:46:06 2024
354,polonnaruwa,7.9333,81.0,27.38,80,99,0.67,LK,Wed Jan 31 19:46:06 2024
355,msowero,-6.5333,37.2,21.91,98,100,0.2,TZ,Wed Jan 31 19:46:06 2024
356,monterey,36.2505,-121.2516,11.21,81,100,6.43,US,Wed Jan 31 19:46:06 2024
357,sinop,41.7711,34.8709,0.08,66,53,0.58,TR,Wed Jan 31 19:42:02 2024
358,fort mcmurray,56.7268,-111.381,5.77,60,75,4.12,CA,Wed Jan 31 19:46:06 2024
359,fort bragg,35.139,-79.006,5.67,91,0,1.54,US,Wed Jan 31 19:46:07 2024
360,theunissen,-28.411,26.7011,18.01,47,83,3.56,ZA,Wed Jan 31 19:46:07 2024
361,sinabang,2.4803,96.3801,29.61,68,89,0.47,ID,Wed Jan 31 19:46:07 2024
362,karaidel',55.8337,56.9069,-15.85,99,100,1.37,RU,Wed Jan 31 19:46:07 2024
363,mount pleasant,32.7941,-79.8626,8.33,86,0,2.57,US,Wed Jan 31 19:42:30 2024
364,glace bay,46.1969,-59.957,-6.79,86,0,4.63,CA,Wed Jan 31 19:46:07 2024
365,inarajan village,13.2736,144.7484,31.54,72,93,10.37,GU,Wed Jan 31 19:46:07 2024
366,belalcazar,2.6547,-75.9928,16.97,93,80,0.85,CO,Wed Jan 31 19:46:07 2024
367,chonchi,-42.6128,-73.8092,17.84,98,26,1.37,CL,Wed Jan 31 19:46:07 2024
368,mbaiki,3.8678,17.9892,22.34,38,88,0.83,CF,Wed Jan 31 19:46:08 2024
369,bununu,9.8681,9.6628,17.57,30,41,2.28,NG,Wed Jan 31 19:46:08 2024
370,mar del plata,-38.0023,-57.5575,26.01,50,0,3.09,AR,Wed Jan 31 19:37:17 2024
371,pajok,3.8651,32.4821,22.09,68,94,1.14,SS,Wed Jan 31 19:46:08 2024
372,callao,-12.0667,-77.15,27.62,69,75,8.23,PE,Wed Jan 31 19:46:01 2024
373,san pedro pochutla,15.7333,-96.4667,22.06,83,100,1.43,MX,Wed Jan 31 19:42:52 2024
374,nelson bay,-32.7167,152.15,28.38,69,50,1.34,AU,Wed Jan 31 19:46:09 2024
375,pitimbu,-7.4706,-34.8086,25.33,75,12,2.81,BR,Wed Jan 31 19:46:09 2024
376,yuzhno-kurilsk,44.0306,145.8556,-5.04,72,50,14.71,RU,Wed Jan 31 19:46:09 2024
377,nar'yan-mar,67.6713,53.087,0.06,93,100,9.39,RU,Wed Jan 31 19:46:09 2024
378,sao geraldo do araguaia,-6.4006,-48.555,23.53,96,91,1.26,BR,Wed Jan 31 19:46:09 2024
379,khromtau,50.2503,58.4347,-14.42,99,80,3.1,KZ,Wed Jan 31 19:46:09 2024
380,maroua,10.591,14.3159,19.46,26,37,3.76,CM,Wed Jan 31 19:46:09 2024
381,petawawa,45.9001,-77.3328,1.55,83,100,3.09,CA,Wed Jan 31 19:46:09 2024
382,onguday,50.75,86.15,-8.79,81,100,1.18,RU,Wed Jan 31 19:46:09 2024
383,sanya,18.2431,109.505,28.09,61,0,1.0,CN,Wed Jan 31 19:46:10 2024
384,sterling,39.0062,-77.4286,3.97,84,20,0.0,US,Wed Jan 31 19:45:09 2024
385,alofi,-19.0595,-169.9187,28.94,89,75,3.09,NU,Wed Jan 31 19:46:10 2024
386,ponnani,10.767,75.9252,25.62,67,90,2.75,IN,Wed Jan 31 19:46:10 2024
387,perry,37.2506,-83.1999,6.1,88,38,0.95,US,Wed Jan 31 19:46:10 2024
388,dame-marie,18.5667,-74.4167,23.45,81,47,1.25,HT,Wed Jan 31 19:46:10 2024
389,haiku-pauwela,20.9219,-156.3051,26.01,70,0,4.63,US,Wed Jan 31 19:46:10 2024
390,altay,47.8667,88.1167,-10.13,80,88,1.45,CN,Wed Jan 31 19:46:11 2024
391,zheshart,62.0731,49.5733,-10.22,95,29,2.87,RU,Wed Jan 31 19:46:11 2024
392,north bondi,-33.8824,151.2769,31.3,63,40,6.69,AU,Wed Jan 31 19:46:11 2024
393,joypur hat,25.0943,89.0217,23.16,47,0,2.96,BD,Wed Jan 31 19:46:11 2024
394,haffouz,35.6324,9.6762,6.57,79,29,0.95,TN,Wed Jan 31 19:46:11 2024
395,holualoa,19.6228,-155.9522,24.91,85,75,4.63,US,Wed Jan 31 19:46:11 2024
396,anzhero-sudzhensk,56.081,86.0285,-8.58,94,100,2.29,RU,Wed Jan 31 19:46:11 2024
397,boa vista,2.8197,-60.6733,28.99,65,0,5.66,BR,Wed Jan 31 19:46:12 2024
398,qamdo,31.1667,97.2333,-6.82,31,62,3.04,CN,Wed Jan 31 19:46:12 2024
399,fuyuan,46.4333,127.0833,-18.17,78,6,4.04,CN,Wed Jan 31 19:46:12 2024
400,port alberni,49.2413,-124.8028,11.18,96,100,0.89,CA,Wed Jan 31 19:46:12 2024
401,halifax,44.6453,-63.5724,-4.75,88,20,2.24,CA,Wed Jan 31 19:45:09 2024
402,majene,-3.5403,118.9707,30.48,63,97,1.96,ID,Wed Jan 31 19:46:12 2024
403,susanville,40.4163,-120.653,6.91,69,100,2.68,US,Wed Jan 31 19:46:12 2024
404,bargaal,11.2864,51.0773,23.64,79,77,0.96,SO,Wed Jan 31 19:46:13 2024
405,iskateley,67.6803,53.1512,0.01,93,100,9.39,RU,Wed Jan 31 19:46:13 2024
406,castillos,-34.1667,-53.8333,19.34,84,0,2.63,UY,Wed Jan 31 19:46:13 2024
407,rikaze,29.25,88.8833,-2.35,33,0,1.62,CN,Wed Jan 31 19:46:13 2024
408,belmonte,-15.8631,-38.8828,24.36,85,100,2.26,BR,Wed Jan 31 19:46:13 2024
409,kolonia,50.9333,6.95,8.92,88,100,4.12,DE,Wed Jan 31 19:45:41 2024
410,puerto cortez,15.8333,-87.95,21.19,76,100,0.87,HN,Wed Jan 31 19:46:13 2024
411,nova sintra,14.8667,-24.7167,21.05,63,5,4.84,CV,Wed Jan 31 19:46:13 2024
412,sisimiut,66.9395,-53.6735,-22.05,97,98,5.73,GL,Wed Jan 31 19:46:14 2024
413,mahriz,31.5917,54.4318,0.28,51,0,0.23,IR,Wed Jan 31 19:46:14 2024
414,hargeysa,9.56,44.065,17.0,64,84,1.05,SO,Wed Jan 31 19:46:14 2024
415,mossel bay,-34.1831,22.146,20.96,91,91,1.32,ZA,Wed Jan 31 19:46:14 2024
416,matane,48.8286,-67.522,-4.54,94,100,2.9,CA,Wed Jan 31 19:46:14 2024
417,san pedro tapanatepec,16.35,-94.2,21.21,70,100,3.13,MX,Wed Jan 31 19:46:14 2024
418,port augusta,-32.5,137.7667,29.86,25,0,7.35,AU,Wed Jan 31 19:46:15 2024
419,same,-4.0667,37.7333,20.67,92,100,1.24,TZ,Wed Jan 31 19:46:15 2024
420,lepsy,46.235,78.9456,-5.11,89,100,2.67,KZ,Wed Jan 31 19:46:15 2024
421,lisala,2.15,21.5167,20.79,73,100,0.41,CD,Wed Jan 31 19:46:15 2024
422,sanchor,24.7553,71.7722,21.54,67,1,2.77,IN,Wed Jan 31 19:46:15 2024
423,mata-utu,-13.2816,-176.1745,29.37,77,100,5.16,WF,Wed Jan 31 19:46:15 2024
424,malvan,16.0667,73.4667,24.38,65,14,2.17,IN,Wed Jan 31 19:46:15 2024
425,noumea,-22.2763,166.4572,34.99,70,39,6.57,NC,Wed Jan 31 19:32:25 2024
426,hotan,37.0997,79.9269,-3.79,89,93,1.05,CN,Wed Jan 31 19:46:16 2024
427,taoudenni,22.6783,-3.9836,16.78,26,0,4.58,ML,Wed Jan 31 19:46:16 2024
428,taltal,-25.4,-70.4833,19.69,88,27,0.59,CL,Wed Jan 31 19:46:16 2024
429,quatre cocos,-20.2078,57.7625,28.38,81,57,7.23,MU,Wed Jan 31 19:46:16 2024
430,midelt,32.6852,-4.7451,4.89,51,0,0.09,MA,Wed Jan 31 19:46:16 2024
431,spassk,52.747,87.7545,-10.14,97,100,1.34,RU,Wed Jan 31 19:46:16 2024
432,lago da pedra,-4.3333,-45.1667,23.52,98,81,0.99,BR,Wed Jan 31 19:46:16 2024
433,walvis bay,-22.9575,14.5053,17.53,94,93,0.0,NA,Wed Jan 31 19:46:17 2024
434,monrovia,6.3005,-10.7969,26.41,84,76,1.43,LR,Wed Jan 31 19:46:17 2024
435,lorengau,-2.0226,147.2712,29.53,74,51,6.31,PG,Wed Jan 31 19:46:17 2024
436,zaozersk,69.4005,32.4476,0.16,93,100,10.54,RU,Wed Jan 31 19:46:17 2024
437,berdigestyakh,62.0989,126.6992,-26.85,94,100,2.17,RU,Wed Jan 31 19:46:17 2024
438,adrar,20.5022,-10.0711,15.29,17,61,5.59,MR,Wed Jan 31 19:46:17 2024
439,robore,-18.3333,-59.75,26.08,68,65,1.27,BO,Wed Jan 31 19:46:17 2024
440,as saffaniyah,27.9708,48.73,17.73,67,51,5.04,SA,Wed Jan 31 19:46:17 2024
441,rawai,7.7797,98.3253,30.06,71,53,5.9,TH,Wed Jan 31 19:46:17 2024
442,badger,64.8,-147.5333,-34.05,71,20,1.54,US,Wed Jan 31 19:46:18 2024
443,bhamo,24.2667,97.2333,19.63,49,98,1.19,MM,Wed Jan 31 19:46:18 2024
444,wanju,35.8451,127.1475,5.71,54,100,1.76,KR,Wed Jan 31 19:46:18 2024
445,bria,6.5423,21.9863,19.56,25,100,1.86,CF,Wed Jan 31 19:46:18 2024
446,kon tum,14.35,108.0,30.3,42,61,1.26,VN,Wed Jan 31 19:46:18 2024
447,kamina,-8.7386,24.9906,17.69,99,100,1.25,CD,Wed Jan 31 19:46:18 2024
448,fortuna,40.5982,-124.1573,10.92,89,100,7.2,US,Wed Jan 31 19:46:18 2024
449,kasongo-lunda,-6.4667,16.8167,20.31,98,100,0.54,CD,Wed Jan 31 19:46:19 2024
450,bikenibeu village,1.3673,173.1241,31.98,84,75,2.57,KI,Wed Jan 31 19:46:19 2024
451,saldanha,-33.0117,17.9442,17.03,94,5,4.53,ZA,Wed Jan 31 19:46:19 2024
452,port lincoln,-34.7333,135.8667,21.9,56,0,5.83,AU,Wed Jan 31 19:46:19 2024
453,tual,-5.6667,132.75,28.92,76,79,8.07,ID,Wed Jan 31 19:46:19 2024
454,kenai,60.5544,-151.2583,-21.97,83,0,0.0,US,Wed Jan 31 19:46:19 2024
455,punta cana,18.5818,-68.4043,22.87,88,20,0.0,DO,Wed Jan 31 19:44:23 2024
456,kindia,10.0569,-12.8658,19.63,80,88,0.85,GN,Wed Jan 31 19:46:19 2024
457,trevelin,-43.0858,-71.4639,16.71,81,99,2.19,AR,Wed Jan 31 19:46:20 2024
458,sanctuary point,-35.1114,150.629,27.96,61,0,5.49,AU,Wed Jan 31 19:46:20 2024
459,turbat,26.0023,63.044,18.04,26,1,6.13,PK,Wed Jan 31 19:46:20 2024
460,alta,69.9689,23.2717,-0.41,75,20,6.17,NO,Wed Jan 31 19:46:20 2024
461,oranjemund,-28.55,16.4333,18.14,94,87,4.39,NA,Wed Jan 31 19:46:20 2024
462,weno,7.4515,151.8468,28.97,74,75,5.14,FM,Wed Jan 31 19:46:20 2024
463,chapeco,-27.0964,-52.6183,23.86,69,0,6.17,BR,Wed Jan 31 19:46:20 2024
464,albertina,-22.2008,-46.6158,18.26,76,64,2.36,BR,Wed Jan 31 19:46:21 2024
465,acapulco de juarez,16.8634,-99.8901,27.9,74,40,2.57,MX,Wed Jan 31 19:45:07 2024
466,armidale,-30.5167,151.65,29.09,34,0,1.9,AU,Wed Jan 31 19:46:22 2024
467,saint-francois,46.4154,3.9054,8.69,100,100,1.54,FR,Wed Jan 31 19:46:22 2024
468,egilsstadir,65.2653,-14.3948,-4.05,58,75,6.69,IS,Wed Jan 31 19:46:22 2024
469,gassol,8.5333,10.4667,23.23,25,54,3.91,NG,Wed Jan 31 19:46:22 2024
470,as sulayyil,20.4607,45.5779,19.14,36,53,3.86,SA,Wed Jan 31 19:46:22 2024
471,horta,38.5333,-28.6333,15.57,81,53,5.36,PT,Wed Jan 31 19:46:22 2024
472,prince albert,53.2001,-105.7677,-5.03,86,0,4.63,CA,Wed Jan 31 19:46:22 2024
473,troitsko-pechorsk,62.7084,56.1964,-9.06,98,95,2.68,RU,Wed Jan 31 19:46:22 2024
474,ilinge,-31.9768,27.0427,18.73,73,70,0.72,ZA,Wed Jan 31 19:46:23 2024
475,nadarzyn,52.0944,20.8078,4.6,75,75,5.14,PL,Wed Jan 31 19:46:23 2024
476,mili,6.0815,171.735,28.22,81,68,7.78,MH,Wed Jan 31 19:46:23 2024
477,la rinconada,37.4873,-5.9826,10.74,88,0,3.6,ES,Wed Jan 31 19:46:23 2024
478,severo-yeniseyskiy,60.3725,93.0408,-23.23,86,98,1.15,RU,Wed Jan 31 19:46:23 2024
479,novyy urengoy,66.0833,76.6333,-17.7,98,92,4.3,RU,Wed Jan 31 19:46:23 2024
480,gamba,-2.65,10.0,24.5,89,100,1.27,GA,Wed Jan 31 19:46:23 2024
481,santa cruz,-17.8,-63.1667,26.7,83,5,2.57,BO,Wed Jan 31 19:41:32 2024
482,ash shatrah,31.4117,46.1742,11.35,52,66,3.65,IQ,Wed Jan 31 19:46:24 2024
483,yelizovo,53.1873,158.3805,-9.92,34,75,1.0,RU,Wed Jan 31 19:46:24 2024
484,crucecita,-28.95,-58.9833,22.71,60,3,2.96,AR,Wed Jan 31 19:46:24 2024
485,nema,57.5067,50.5011,-9.14,100,100,1.95,RU,Wed Jan 31 19:46:24 2024
486,greymouth,-42.4667,171.2,17.91,71,95,2.45,NZ,Wed Jan 31 19:46:24 2024
487,borogontsy,62.6683,131.1683,-28.13,94,63,1.96,RU,Wed Jan 31 19:46:24 2024
488,puerto santa,-8.9906,-78.6456,23.56,82,100,2.95,PE,Wed Jan 31 19:46:24 2024
489,karratha,-20.7377,116.8463,33.97,51,90,7.24,AU,Wed Jan 31 19:46:25 2024
490,laminusa,5.5549,120.9136,27.08,80,99,2.19,PH,Wed Jan 31 19:46:25 2024
491,dickinson,29.4608,-95.0513,17.28,79,0,2.06,US,Wed Jan 31 19:46:25 2024
492,ingeniero jacobacci,-41.3427,-69.5448,18.67,43,1,3.77,AR,Wed Jan 31 19:46:25 2024
493,kharp,66.8014,65.8081,-18.58,99,100,2.63,RU,Wed Jan 31 19:46:25 2024
494,nabire,-3.3667,135.4833,30.64,67,37,3.19,ID,Wed Jan 31 19:46:25 2024
495,tobelo,1.7284,128.0095,28.59,76,69,2.5,ID,Wed Jan 31 19:46:25 2024
496,aldama,22.9167,-98.0667,19.72,77,100,0.8,MX,Wed Jan 31 19:46:25 2024
497,langepas,61.2544,75.2124,-16.85,97,100,3.44,RU,Wed Jan 31 19:46:26 2024
498,coquimbo,-29.9533,-71.3436,17.85,88,75,2.06,CL,Wed Jan 31 19:46:26 2024
499,manta,-0.95,-80.7333,27.78,74,75,5.81,EC,Wed Jan 31 19:46:26 2024
500,talara,-4.5772,-81.2719,24.66,80,100,4.7,PE,Wed Jan 31 19:46:26 2024
501,belyy yar,53.6039,91.3903,-20.06,92,99,0.0,RU,Wed Jan 31 19:46:26 2024
502,pelabuhanratu,-6.9875,106.5514,29.67,71,57,2.29,ID,Wed Jan 31 19:44:32 2024
503,boguchany,58.3814,97.4531,-24.42,92,70,0.68,RU,Wed Jan 31 19:46:26 2024
504,cheremukhovo,60.3484,59.9851,-16.69,99,91,1.34,RU,Wed Jan 31 19:46:26 2024
505,trairi,-3.2778,-39.2689,26.48,87,79,3.22,BR,Wed Jan 31 19:45:45 2024
506,taruma,-22.7467,-50.5772,20.8,72,64,2.53,BR,Wed Jan 31 19:46:27 2024
507,cabedelo,-6.9811,-34.8339,25.37,75,5,3.32,BR,Wed Jan 31 19:46:27 2024
508,corner brook,48.9667,-57.9484,-6.91,98,89,2.22,CA,Wed Jan 31 19:46:27 2024
509,celestun,20.8667,-90.4,20.14,72,10,4.36,MX,Wed Jan 31 19:46:27 2024
510,kodinsk,58.6881,99.1844,-25.87,93,67,0.91,RU,Wed Jan 31 19:46:27 2024
511,loa janan,-0.583,117.095,30.56,70,100,0.31,ID,Wed Jan 31 19:46:27 2024
512,mahavelona,-17.6848,49.5087,24.99,83,74,5.26,MG,Wed Jan 31 19:46:27 2024
513,pont rouge,48.8833,-72.0825,-1.84,94,100,2.39,CA,Wed Jan 31 19:46:28 2024
514,murzuq,25.9155,13.9184,6.15,60,0,4.11,LY,Wed Jan 31 19:46:28 2024
515,susuman,62.7833,148.1667,-25.57,99,100,0.89,RU,Wed Jan 31 19:46:28 2024
516,brindisi,40.5833,17.6667,7.2,87,16,3.75,IT,Wed Jan 31 19:46:28 2024
517,guiratinga,-16.3494,-53.7583,22.87,78,53,1.86,BR,Wed Jan 31 19:46:28 2024
518,puryong,42.0606,129.7117,-5.99,22,0,3.02,KP,Wed Jan 31 19:46:28 2024
519,de aar,-30.6497,24.0123,23.37,48,99,2.44,ZA,Wed Jan 31 19:46:28 2024
520,nuuk,64.1835,-51.7216,-8.66,79,100,6.17,GL,Wed Jan 31 19:46:29 2024
521,neon karlovasion,37.7903,26.7044,7.87,80,1,6.71,GR,Wed Jan 31 19:46:29 2024
522,tosontsengel,48.7567,98.2839,-19.58,89,32,1.28,MN,Wed Jan 31 19:46:29 2024
523,ormara,25.2088,64.6357,20.5,31,0,3.45,PK,Wed Jan 31 19:46:29 2024
524,leskova dolina,45.6225,14.4613,-3.02,43,11,0.32,SI,Wed Jan 31 19:46:29 2024
525,tirthahalli,13.7,75.2333,23.77,60,59,1.0,IN,Wed Jan 31 19:46:29 2024
526,umaria,23.5333,80.8333,22.14,39,15,0.92,IN,Wed Jan 31 19:46:30 2024
527,tidjikja,18.5564,-11.4271,17.74,15,98,5.94,MR,Wed Jan 31 19:46:30 2024
528,bocas del toro,9.3333,-82.25,21.7,81,94,4.46,PA,Wed Jan 31 19:46:30 2024
529,kirensk,57.7853,108.1119,-25.58,95,99,0.89,RU,Wed Jan 31 19:46:30 2024
530,kamaishi,39.2667,141.8833,2.74,52,9,7.53,JP,Wed Jan 31 19:46:30 2024
531,vilyuysk,63.7553,121.6247,-27.22,98,100,1.79,RU,Wed Jan 31 19:46:30 2024
532,lingcheng,22.7072,110.3492,24.16,68,70,2.73,CN,Wed Jan 31 19:46:30 2024
533,merizo village,13.2658,144.6691,31.31,72,95,10.01,GU,Wed Jan 31 19:46:30 2024
534,selizharovo,56.8519,33.4487,1.0,98,100,4.52,RU,Wed Jan 31 19:46:31 2024
535,luderitz,-26.6481,15.1594,19.49,77,50,6.97,NA,Wed Jan 31 19:46:31 2024
536,lewistown,40.5992,-77.5714,5.56,96,100,0.0,US,Wed Jan 31 19:42:16 2024
537,kodinar,20.7903,70.7031,23.33,75,86,3.27,IN,Wed Jan 31 19:46:31 2024
538,tanah merah,5.8,102.15,32.78,60,97,1.56,MY,Wed Jan 31 19:46:31 2024
539,kimamba,-6.7833,37.1333,21.73,99,100,0.36,TZ,Wed Jan 31 19:46:31 2024
540,gizo,-8.103,156.8419,29.41,74,21,4.99,SB,Wed Jan 31 19:46:31 2024
541,mahibadhoo,3.7833,72.9667,27.7,74,79,3.69,MV,Wed Jan 31 19:46:31 2024
542,changnyeong,35.5415,128.4951,9.77,57,100,3.09,KR,Wed Jan 31 19:46:32 2024
543,alvaraes,-3.2208,-64.8042,23.93,98,100,0.79,BR,Wed Jan 31 19:46:32 2024
544,narvik,68.4384,17.4272,2.67,80,78,3.69,NO,Wed Jan 31 19:46:32 2024
545,sangkhla buri,15.1555,98.4536,32.24,38,1,0.96,TH,Wed Jan 31 19:46:32 2024
546,grand gaube,-20.0064,57.6608,28.54,84,42,3.58,MU,Wed Jan 31 19:46:32 2024
547,tateyama,34.9833,139.8667,14.62,62,73,4.38,JP,Wed Jan 31 19:46:32 2024
548,barcelos,41.5388,-8.6151,13.16,74,1,2.06,PT,Wed Jan 31 19:46:32 2024
549,san luis acatlan,16.8167,-98.7333,22.26,89,99,1.13,MX,Wed Jan 31 19:46:32 2024
550,road town,18.4167,-64.6167,25.05,69,10,2.96,VG,Wed Jan 31 19:46:33 2024
551,papao,-17.75,-149.55,28.82,83,23,5.4,PF,Wed Jan 31 19:46:33 2024
552,nova xavantina,-14.6667,-52.35,23.96,82,11,0.51,BR,Wed Jan 31 19:46:33 2024
553,codrington,-38.2667,141.9667,22.19,54,0,8.94,AU,Wed Jan 31 19:46:33 2024
554,el granada,37.5027,-122.4694,13.3,94,100,12.35,US,Wed Jan 31 19:42:59 2024
555,thies nones,14.7833,-16.9667,23.03,49,0,5.14,SN,Wed Jan 31 19:46:33 2024
556,kavaratti,10.5669,72.642,27.48,72,93,5.64,IN,Wed Jan 31 19:46:33 2024
557,gebeit,21.0667,36.3167,10.07,28,22,3.73,SD,Wed Jan 31 19:46:33 2024
558,copala,16.65,-98.9833,24.74,81,97,1.73,MX,Wed Jan 31 19:46:34 2024
559,plesetsk,62.708,40.2916,-0.87,95,100,5.05,RU,Wed Jan 31 19:46:34 2024
560,fisterra,42.9049,-9.2629,10.42,72,68,3.3,ES,Wed Jan 31 19:46:34 2024
561,suda,59.1525,37.5582,-0.52,98,100,3.39,RU,Wed Jan 31 19:46:34 2024
